address,name,phone,latitude,longitude,status
"Rua Seabra - Campo Grande, Rio de Janeiro - RJ",João Oliveira,(21) 91646-6839,-22.9265482,-43.5662819,Aguardando entrega
"Rua Cedro Rosa - Campo Grande, Rio de Janeiro - RJ",Gabriela Santos,(21) 92412-8683,-22.927912,-43.5618503,Aguardando entrega
"Rua Soldado Joaquim Lôbo - Campo Grande, Rio de Janeiro - RJ",Caio Silva,(21) 92156-6424,-22.9277071,-43.5584832,Aguardando entrega
"Rua Jornalista Gastão de Carvalho - Campo Grande, Rio de Janeiro - RJ",Gabriela Oliveira,(21) 91472-8424,-22.9314146,-43.5582919,Aguardando entrega
"Condomínio Life Resort 2 - Estrada da Cachamorra - Campo Grande, Rio de Janeiro - RJ",Miguel Santos,(21) 94074-7767,-22.9253146,-43.5522121,Aguardando entrega
