address,name,phone,latitude,longitude
"Park Shopping Campo Grande - Estrada do Monteiro - Campo Grande, Rio de Janeiro - RJ",Caio Ferreira,(21) 99992-7573,-22.928179,-43.5739863
"Rua Seabra - Campo Grande, Rio de Janeiro - RJ",Miguel Santos,(21) 95209-8154,-22.9265482,-43.5662819
"Rua Cedro Rosa - Campo Grande, Rio de Janeiro - RJ",Gabriela Garcia,(21) 96766-8747,-22.927912,-43.5618503
"Rua Soldado Joaquim Lôbo - Campo Grande, Rio de Janeiro - RJ",Caio Pereira,(21) 98942-5907,-22.9277071,-43.5584832
"Rua Jornalista Gastão de Carvalho - Campo Grande, Rio de Janeiro - RJ",Alice Garcia,(21) 99568-9154,-22.9314146,-43.5582919
"Condomínio Life Resort 2 - Estrada da Cachamorra - Campo Grande, Rio de Janeiro - RJ",Caio Oliveira,(21) 90073-6059,-22.9253146,-43.5522121
"Park Shopping Campo Grande - Estrada do Monteiro - Campo Grande, Rio de Janeiro - RJ",Caio Garcia,(21) 93823-4854,-22.928179,-43.5739863
