address,name,phone,latitude,longitude
"Park Shopping Campo Grande - Estrada do Monteiro - Campo Grande, Rio de Janeiro - RJ",Beatriz Santos,(21) 99762-5079,-22.928179,-43.5739863
"Rua Seabra - Campo Grande, Rio de Janeiro - RJ",João Garcia,(21) 98414-8642,-22.9265482,-43.5662819
"Rua Cedro Rosa - Campo Grande, Rio de Janeiro - RJ",Alice Oliveira,(21) 98654-7603,-22.927912,-43.5618503
"Rua Soldado Joaquim Lôbo - Campo Grande, Rio de Janeiro - RJ",Miguel Oliveira,(21) 93260-2620,-22.9277071,-43.5584832
"Rua Jornalista Gastão de Carvalho - Campo Grande, Rio de Janeiro - RJ",Alice Santos,(21) 95816-8520,-22.9314146,-43.5582919
"Condomínio Life Resort 2 - Estrada da Cachamorra - Campo Grande, Rio de Janeiro - RJ",Miguel Silva,(21) 91669-6249,-22.9253146,-43.5522121
"Park Shopping Campo Grande - Estrada do Monteiro - Campo Grande, Rio de Janeiro - RJ",Miguel Garcia,(21) 99044-4048,-22.928179,-43.5739863
